[{"name":"Bizerte - Tunis","origin":"Bizerte","originCode":"BIZ","destination":"Tunis","destinationCode":"TUN","distanceKm":70,"estimatedDurationMinutes":70,"description":"Return route from Bizerte","isActive":true,"stops":[],"id":"bbbbbbbb-cccc-dddd-eeee-ffffffffffff","createdAt":"2024-01-01T00:00:00Z","updatedAt":null},{"name":"Gabes - Medenine","origin":"Gabes","originCode":"GAB","destination":"Medenine","destinationCode":"MED","distanceKm":80,"estimatedDurationMinutes":100,"description":"Connection to southern coast","isActive":true,"stops":[],"id":"66666666-6666-6666-6666-666666666666","createdAt":"2024-01-01T00:00:00Z","updatedAt":null},{"name":"Gabes - Nabeul","origin":"Gabes","originCode":"GAB","destination":"Nabeul","destinationCode":"NAB","distanceKm":350,"estimatedDurationMinutes":420,"description":"Long distance southern to northern coast","isActive":true,"stops":[],"id":"eeeeeeee-ffff-aaaa-bbbb-cccccccccccc","createdAt":"2024-01-01T00:00:00Z","updatedAt":null},{"name":"Nabeul - Hammamet","origin":"Nabeul","originCode":"NAB","destination":"Hammamet","destinationCode":"HAM","distanceKm":15,"estimatedDurationMinutes":20,"description":"Short coastal route","isActive":true,"stops":[],"id":"cccccccc-dddd-eeee-ffff-aaaaaaaaaaaa","createdAt":"2024-01-01T00:00:00Z","updatedAt":null},{"name":"National North-South","origin":"Bizerte","originCode":"BIZ","destination":"Tataouine","destinationCode":"TAT","distanceKm":760,"estimatedDurationMinutes":840,"description":"Major national spine covering key Tunisian cities","isActive":true,"stops":[{"id":"77777777-7777-7777-7777-777777777771","name":"Bizerte Station","order":1,"distanceFromOrigin":0,"latitude":37.2746,"longitude":9.8739,"stopDurationMinutes":5},{"id":"77777777-7777-7777-7777-777777777772","name":"Nabeul","order":2,"distanceFromOrigin":95,"latitude":36.4513,"longitude":10.735,"stopDurationMinutes":3},{"id":"77777777-7777-7777-7777-777777777773","name":"Hammamet","order":3,"distanceFromOrigin":115,"latitude":36.4047,"longitude":10.6143,"stopDurationMinutes":3},{"id":"77777777-7777-7777-7777-777777777774","name":"Zaghouan","order":4,"distanceFromOrigin":150,"latitude":36.3993,"longitude":10.1422,"stopDurationMinutes":2},{"id":"77777777-7777-7777-7777-777777777775","name":"Kairouan","order":5,"distanceFromOrigin":200,"latitude":35.6769,"longitude":10.101,"stopDurationMinutes":5},{"id":"77777777-7777-7777-7777-777777777776","name":"Sousse","order":6,"distanceFromOrigin":235,"latitude":35.8256,"longitude":10.6411,"stopDurationMinutes":5},{"id":"77777777-7777-7777-7777-777777777777","name":"Monastir","order":7,"distanceFromOrigin":255,"latitude":35.7643,"longitude":10.8113,"stopDurationMinutes":3},{"id":"77777777-7777-7777-7777-777777777778","name":"Mahdia","order":8,"distanceFromOrigin":295,"latitude":35.5039,"longitude":11.0457,"stopDurationMinutes":3},{"id":"77777777-7777-7777-7777-777777777779","name":"Sfax","order":9,"distanceFromOrigin":350,"latitude":34.7405,"longitude":10.7603,"stopDurationMinutes":5},{"id":"77777777-7777-7777-7777-777777777780","name":"Gabes","order":10,"distanceFromOrigin":440,"latitude":33.8815,"longitude":10.0982,"stopDurationMinutes":4},{"id":"77777777-7777-7777-7777-777777777781","name":"Medenine","order":11,"distanceFromOrigin":520,"latitude":33.3549,"longitude":10.5055,"stopDurationMinutes":4},{"id":"77777777-7777-7777-7777-777777777782","name":"Tataouine","order":12,"distanceFromOrigin":760,"latitude":32.9297,"longitude":10.4518,"stopDurationMinutes":0},{"id":"77777777-7777-7777-7777-777777777783","name":"Kef","order":13,"distanceFromOrigin":310,"latitude":36.1769,"longitude":8.7043,"stopDurationMinutes":3},{"id":"77777777-7777-7777-7777-777777777784","name":"Beja","order":14,"distanceFromOrigin":240,"latitude":36.7333,"longitude":9.1833,"stopDurationMinutes":3},{"id":"77777777-7777-7777-7777-777777777785","name":"Jendouba","order":15,"distanceFromOrigin":270,"latitude":36.5011,"longitude":8.7802,"stopDurationMinutes":3},{"id":"77777777-7777-7777-7777-777777777786","name":"Siliana","order":16,"distanceFromOrigin":210,"latitude":36.0833,"longitude":9.3667,"stopDurationMinutes":3},{"id":"77777777-7777-7777-7777-777777777787","name":"Kasserine","order":17,"distanceFromOrigin":360,"latitude":35.1676,"longitude":8.8365,"stopDurationMinutes":4},{"id":"77777777-7777-7777-7777-777777777788","name":"Gafsa","order":18,"distanceFromOrigin":420,"latitude":34.423,"longitude":8.7841,"stopDurationMinutes":4},{"id":"77777777-7777-7777-7777-777777777789","name":"Tozeur","order":19,"distanceFromOrigin":520,"latitude":33.9197,"longitude":8.1335,"stopDurationMinutes":4}],"id":"44444444-4444-4444-4444-444444444446","createdAt":"2024-01-01T00:00:00Z","updatedAt":null},{"name":"Sfax - Gabes","origin":"Sfax","originCode":"SFX","destination":"Gabes","destinationCode":"GAB","distanceKm":90,"estimatedDurationMinutes":120,"description":"Southern intercity route","isActive":true,"stops":[],"id":"55555555-5555-5555-5555-555555555555","createdAt":"2024-01-01T00:00:00Z","updatedAt":null},{"name":"Sfax - Tunis","origin":"Sfax","originCode":"SFX","destination":"Tunis","destinationCode":"TUN","distanceKm":270,"estimatedDurationMinutes":270,"description":"Return intercity route","isActive":true,"stops":[],"id":"dddddddd-eeee-ffff-aaaa-bbbbbbbbbbbb","createdAt":"2024-01-01T00:00:00Z","updatedAt":null},{"name":"Sousse - Monastir","origin":"Sousse","originCode":"SUS","destination":"Monastir","destinationCode":"MNS","distanceKm":25,"estimatedDurationMinutes":30,"description":"Coastal express route","isActive":true,"stops":[],"id":"77777777-7777-7777-7777-777777777777","createdAt":"2024-01-01T00:00:00Z","updatedAt":null},{"name":"Tunis - Bizerte","origin":"Tunis","originCode":"TUN","destination":"Bizerte","destinationCode":"BIZ","distanceKm":70,"estimatedDurationMinutes":70,"description":"Route to Bizerte","isActive":true,"stops":[],"id":"33333333-3333-3333-3333-333333333334","createdAt":"2024-01-01T00:00:00Z","updatedAt":null},{"name":"Tunis - Hammamet","origin":"Tunis","originCode":"TUN","destination":"Hammamet","destinationCode":"HAM","distanceKm":65,"estimatedDurationMinutes":75,"description":"Tourist route to Hammamet","isActive":true,"stops":[],"id":"88888888-8888-8888-8888-888888888888","createdAt":"2024-01-01T00:00:00Z","updatedAt":null},{"name":"Tunis - Kairouan","origin":"Tunis","originCode":"TUN","destination":"Kairouan","destinationCode":"KAI","distanceKm":160,"estimatedDurationMinutes":150,"description":"Historic city route","isActive":true,"stops":[],"id":"aaaaaaaa-bbbb-cccc-dddd-eeeeeeeeeeee","createdAt":"2024-01-01T00:00:00Z","updatedAt":null},{"name":"Tunis - Nabeul","origin":"Tunis","originCode":"TUN","destination":"Nabeul","destinationCode":"NAB","distanceKm":70,"estimatedDurationMinutes":80,"description":"Route to Nabeul","isActive":true,"stops":[],"id":"99999999-9999-9999-9999-999999999999","createdAt":"2024-01-01T00:00:00Z","updatedAt":null},{"name":"Tunis - Sfax","origin":"Tunis","originCode":"TUN","destination":"Sfax","destinationCode":"SFX","distanceKm":270,"estimatedDurationMinutes":270,"description":"Main intercity route connecting Tunisia's capital to Sfax","isActive":true,"stops":[{"id":"44444444-4444-4444-4444-444444444445","name":"Tunis Central Station","order":1,"distanceFromOrigin":0,"latitude":36.8065,"longitude":10.1815,"stopDurationMinutes":5},{"id":"55555555-5555-5555-5555-555555555556","name":"Sidi Bou Said","order":2,"distanceFromOrigin":15,"latitude":36.8697,"longitude":10.3423,"stopDurationMinutes":2},{"id":"66666666-6666-6666-6666-666666666667","name":"Sfax Central Station","order":3,"distanceFromOrigin":270,"latitude":34.7405,"longitude":10.7603,"stopDurationMinutes":0}],"id":"11111111-1111-1111-1111-111111111112","createdAt":"2024-01-01T00:00:00Z","updatedAt":null},{"name":"Tunis - Sousse","origin":"Tunis","originCode":"TUN","destination":"Sousse","destinationCode":"SUS","distanceKm":140,"estimatedDurationMinutes":140,"description":"Express route to Sousse","isActive":true,"stops":[],"id":"22222222-2222-2222-2222-222222222223","createdAt":"2024-01-01T00:00:00Z","updatedAt":null}]